cam-altitude,cam-heading,cam-latitude,cam-longitude,cam-pitch,cam-roll,cam-yaw,corrected-x,corrected-y,id,image-name,image-time,type,x,y,
0,301.488,48.506660738959916,-71.63022841885686,0,0,0,48.506706209102376,-71.63014638430393,447,images/img447.jpg,14:41:38,1,0.9277777777777778,0.6814814814814815,
0,297.272,48.50694118067622,-71.63102498464286,0,0,0,48.50684034572632,-71.63098627535857,461,images/img461.jpg,14:41:45,1,0.8736111111111111,0.8537037037037037,
0,300.226,48.507200265303254,-71.63150478154421,0,0,0,48.50721240672564,-71.63151911608755,472,images/img472.jpg,14:41:50,1,0.5534722222222223,0.5981481481481481,
0,300.226,48.507200265303254,-71.63150478154421,0,0,0,48.507293149764784,-71.6314352679789,472,images/img472.jpg,14:41:50,1,0.9895833333333334,0.27037037037037037,
0,300.226,48.507200265303254,-71.63150478154421,0,0,0,48.507293713731755,-71.63148794777607,472,images/img472.jpg,14:41:50,1,0.96875,0.5120370370370371,
0,300.226,48.507200265303254,-71.63150478154421,0,0,0,48.507281437100765,-71.63152414770481,472,images/img472.jpg,14:41:50,1,0.8854166666666666,0.6805555555555556,
0,300.226,48.507200265303254,-71.63150478154421,0,0,0,48.50719924382333,-71.63156703400384,472,images/img472.jpg,14:41:50,1,0.4263888888888889,0.8287037037037037,
0,289.358,48.50728698447347,-71.6317058801651,0,0,0,48.50729621551613,-71.63160837680259,478,images/img478.jpg,14:41:53,1,0.9368055555555556,0.6981481481481482,
0,289.358,48.50728698447347,-71.6317058801651,0,0,0,48.507308212175886,-71.6316198179561,478,images/img478.jpg,14:41:53,1,0.8743055555555556,0.7416666666666667,
0,300.782,48.50748305395245,-71.63213023915887,0,0,0,48.507592010521094,-71.63209958572398,490,images/img490.jpg,14:41:59,1,0.9701388888888889,0.7481481481481481,
0,306.066,48.507530830800526,-71.63220686651766,0,0,0,48.507512547457466,-71.63221946652037,493,images/img493.jpg,14:42:01,2,0.4125,0.5981481481481481,
0,306.066,48.507530830800526,-71.63220686651766,0,0,0,48.50757199872976,-71.63219952082136,493,images/img493.jpg,14:42:01,2,0.7180555555555556,0.40370370370370373,
0,306.932,48.50756861642003,-71.63226709887385,0,0,0,48.5075923144002,-71.63230484436257,495,images/img495.jpg,14:42:02,1,0.48333333333333334,0.7518518518518519,
0,306.932,48.50756861642003,-71.63226709887385,0,0,0,48.507661827618215,-71.63226069018073,495,images/img495.jpg,14:42:02,3,0.8930555555555556,0.7453703703703703,
0,295.25,48.50772804021835,-71.63264192081988,0,0,0,48.50775916883322,-71.63261868875574,505,images/img505.jpg,14:42:07,2,0.64375,0.6703703703703704,
0,312.414,48.507969237864025,-71.63330043666065,0,0,0,48.507942908258066,-71.63332273898675,524,images/img524.jpg,14:42:16,3,0.37222222222222223,0.6537037037037037,
0,312.414,48.507969237864025,-71.63330043666065,0,0,0,48.508018033424825,-71.6333273083053,524,images/img524.jpg,14:42:16,1,0.7902777777777777,0.5990740740740741,
0,300.886,48.50805407948792,-71.63356255553663,0,0,0,48.508137693498156,-71.63350161232029,531,images/img531.jpg,14:42:20,1,0.9854166666666667,0.6157407407407407,
0,300.886,48.50805407948792,-71.63356255553663,0,0,0,48.50816412574788,-71.63351982690003,531,images/img531.jpg,14:42:20,1,0.9819444444444444,0.7592592592592593,
0,296.134,48.50810173898935,-71.63376338593662,0,0,0,48.507973450211516,-71.63374946320593,536,images/img536.jpg,14:42:22,1,0.9666666666666667,0.1537037037037037,
0,292.842,48.50812453776598,-71.6338872872293,0,0,0,48.50809686839982,-71.63390907653054,539,images/img539.jpg,14:42:24,1,0.4986111111111111,0.7037037037037037,
0,290.724,48.50814212299883,-71.63396951369941,0,0,0,48.50805604292492,-71.63403028057093,541,images/img541.jpg,14:42:25,1,0.9465277777777777,0.26296296296296295,
0,290.724,48.50814212299883,-71.63396951369941,0,0,0,48.5080473855987,-71.63400034542354,541,images/img541.jpg,14:42:25,1,0.9770833333333333,0.40925925925925927,
0,284.566,48.50816198810934,-71.63413988426328,0,0,0,48.50807446583705,-71.63417126323148,545,images/img545.jpg,14:42:27,1,0.9597222222222223,0.45740740740740743,
0,284.566,48.50816198810934,-71.63413988426328,0,0,0,48.508072455569746,-71.63415851403629,545,images/img545.jpg,14:42:27,1,0.9555555555555556,0.5212962962962963,
0,284.566,48.50816198810934,-71.63413988426328,0,0,0,48.5080849238699,-71.6341409339502,545,images/img545.jpg,14:42:27,1,0.8888888888888888,0.5944444444444444,
0,284.566,48.50816198810934,-71.63413988426328,0,0,0,48.50807159233082,-71.63410904504282,545,images/img545.jpg,14:42:27,1,0.89375,0.7583333333333333,
0,284.566,48.50816198810934,-71.63413988426328,0,0,0,48.50804780370701,-71.6341083596248,545,images/img545.jpg,14:42:27,1,0.9756944444444444,0.7731481481481481,
0,284.566,48.50816198810934,-71.63413988426328,0,0,0,48.50820750567745,-71.63406275957115,545,images/img545.jpg,14:42:27,1,0.18263888888888888,0.8175925925925925,
0,284.566,48.50816198810934,-71.63413988426328,0,0,0,48.50818928001815,-71.63403528723302,545,images/img545.jpg,14:42:27,1,0.25,0.95,
0,289.564,48.50820151716471,-71.63430427014828,0,0,0,48.50824964373217,-71.63423224547788,549,images/img549.jpg,14:42:29,1,0.6881944444444444,0.8953703703703704,
0,289.564,48.50820151716471,-71.63430427014828,0,0,0,48.50822465971512,-71.63419127479884,549,images/img549.jpg,14:42:29,1,0.8979166666666667,0.8629629629629629,
0,312.466,48.508325200527906,-71.63455976732075,0,0,0,48.508317837307175,-71.63461140614685,559,images/img559.jpg,14:42:34,1,0.49444444444444446,0.7898148148148149,
0,312.466,48.508325200527906,-71.63455976732075,0,0,0,48.50828955179119,-71.63463103320129,559,images/img559.jpg,14:42:34,1,0.3625,0.8870370370370371,
0,312.466,48.508325200527906,-71.63455976732075,0,0,0,48.50843779365646,-71.63451129921246,559,images/img559.jpg,14:42:34,nest,0.9847222222222223,0.21666666666666667,
0,302.198,48.50847783498466,-71.6348384320736,0,0,0,48.50839858012727,-71.63476990863575,568,images/img568.jpg,14:42:38,1,0.9875,0.37407407407407406,
0,302.198,48.50847783498466,-71.6348384320736,0,0,0,48.50851635186077,-71.63483371212905,568,images/img568.jpg,14:42:38,1,0.39652777777777776,0.6972222222222222,
0,302.198,48.50847783498466,-71.6348384320736,0,0,0,48.50844108636598,-71.63475602528196,568,images/img568.jpg,14:42:38,1,0.94375,0.5833333333333334,
0,302.198,48.50847783498466,-71.6348384320736,0,0,0,48.508469567905735,-71.63474112989933,568,images/img568.jpg,14:42:38,1,0.9152777777777777,0.7379629629629629,
0,302.198,48.50847783498466,-71.6348384320736,0,0,0,48.5084857948952,-71.63474566210465,568,images/img568.jpg,14:42:38,1,0.85625,0.7944444444444444,
0,302.198,48.50847783498466,-71.6348384320736,0,0,0,48.50851889534717,-71.6347972205156,568,images/img568.jpg,14:42:38,1,0.5576388888888889,0.812962962962963,
0,297.56,48.508569080382586,-71.63507791981101,0,0,0,48.508527383736386,-71.63514933108802,574,images/img574.jpg,14:42:41,1,0.8951388888888889,0.35,
0,297.56,48.508569080382586,-71.63507791981101,0,0,0,48.50849598307144,-71.63512126544249,574,images/img574.jpg,14:42:41,1,0.9270833333333334,0.562037037037037,
0,297.56,48.508569080382586,-71.63507791981101,0,0,0,48.5084754830608,-71.63510592467503,574,images/img574.jpg,14:42:41,1,0.9430555555555555,0.6814814814814815,
0,295.674,48.50859290175139,-71.63516671769321,0,0,0,48.50859485738991,-71.6351549354438,576,images/img576.jpg,14:42:42,2,0.5618055555555556,0.5361111111111111,
0,295.674,48.50859290175139,-71.63516671769321,0,0,0,48.50859628665197,-71.63515300150291,576,images/img576.jpg,14:42:42,2,0.5694444444444444,0.5481481481481482,
0,295.674,48.50859290175139,-71.63516671769321,0,0,0,48.508595147847714,-71.63515394591926,576,images/img576.jpg,14:42:42,nest,0.5666666666666667,0.5398148148148149,
0,289.49,48.508675480261445,-71.63555816933513,0,0,0,48.508664746723106,-71.63547438250893,584,images/img584.jpg,14:42:46,2,0.9055555555555556,0.6416666666666667,
0,289.49,48.508675480261445,-71.63555816933513,0,0,0,48.50866504965919,-71.63547214680277,584,images/img584.jpg,14:42:46,2,0.9125,0.6472222222222223,
0,289.49,48.508675480261445,-71.63555816933513,0,0,0,48.50866515367684,-71.63547290352288,584,images/img584.jpg,14:42:46,nest,0.9097222222222222,0.6462962962962963,
0,291.934,48.50869246199727,-71.63560029678047,0,0,0,48.5086370211294,-71.63556564766917,585,images/img585.jpg,14:42:47,1,0.38819444444444445,0.8324074074074074,
0,291.934,48.50869246199727,-71.63560029678047,0,0,0,48.508636154018205,-71.63556703684912,585,images/img585.jpg,14:42:47,1,0.39652777777777776,0.8351851851851851,
0,291.934,48.50869246199727,-71.63560029678047,0,0,0,48.50863624500561,-71.63556651560874,585,images/img585.jpg,14:42:47,nest,0.39375,0.8351851851851851,
0,300.716,48.508810613304384,-71.63585943169892,0,0,0,48.50886617753697,-71.63586796751167,591,images/img591.jpg,14:42:50,1,0.7048611111111112,0.7314814814814815,
0,295.794,48.50918308831751,-71.63679158315063,0,0,0,48.509198636404214,-71.63683343093778,610,images/img610.jpg,14:42:59,1,0.24930555555555556,0.4675925925925926,
0,295.794,48.50918308831751,-71.63679158315063,0,0,0,48.50920011944232,-71.63683309390076,610,images/img610.jpg,14:42:59,1,0.24722222222222223,0.4759259259259259,
0,295.794,48.50918308831751,-71.63679158315063,0,0,0,48.50919949964765,-71.63683296132496,610,images/img610.jpg,14:42:59,nest,0.24930555555555556,0.47314814814814815,
0,301.564,48.50935436412692,-71.63724298216403,0,0,0,48.50939188783223,-71.63716265078108,620,images/img620.jpg,14:43:04,1,0.9090277777777778,0.6768518518518518,
0,301.564,48.50935436412692,-71.63724298216403,0,0,0,48.509391262232285,-71.63716147925096,620,images/img620.jpg,14:43:04,nest,0.9138888888888889,0.6731481481481482,
0,301.564,48.50935436412692,-71.63724298216403,0,0,0,48.509390098444044,-71.63716157572844,620,images/img620.jpg,14:43:04,1,0.9138888888888889,0.6675925925925926,
0,303.278,48.50939734652639,-71.63733295351267,0,0,0,48.50939436816327,-71.63736449210079,622,images/img622.jpg,14:43:05,2,0.5381944444444444,0.3194444444444444,
0,303.278,48.50939734652639,-71.63733295351267,0,0,0,48.50939314665629,-71.63736550451021,622,images/img622.jpg,14:43:05,2,0.5458333333333333,0.3148148148148148,
0,303.278,48.50939734652639,-71.63733295351267,0,0,0,48.50939389372477,-71.63736455320522,622,images/img622.jpg,14:43:05,nest,0.5409722222222222,0.3194444444444444,
0,300.22,48.510343495756395,-71.64104943908751,0,0,0,48.51039168277189,-71.64111441262651,728,images/img728.jpg,14:43:58,2,0.6770833333333334,0.8759259259259259,
0,300.22,48.510343495756395,-71.64104943908751,0,0,0,48.51039067151393,-71.64111494847599,728,images/img728.jpg,14:43:58,2,0.6715277777777777,0.8777777777777778,
0,300.22,48.510343495756395,-71.64104943908751,0,0,0,48.51039109814952,-71.64111490891374,728,images/img728.jpg,14:43:58,nest,0.6736111111111112,0.8777777777777778,
0,304.748,48.51167073659598,-71.6457668915391,0,0,0,48.51168258473938,-71.6457734621121,856,images/img856.jpg,14:45:02,1,0.5402777777777777,0.42962962962962964,